stop_id,stop_name,stop_lat,stop_lon,location_type,parent_station
060001201821,S+U Westhafen (Berlin),52.536183,13.343837,,900000001201
060001201822,S+U Westhafen (Berlin),52.536183,13.343837,,900000001201
060003102223,S Bellevue (Berlin),52.519951,13.347098,,900000003102
060003102224,S Bellevue (Berlin),52.519951,13.347098,,900000003102
060003103233,S Tiergarten (Berlin),52.513963,13.336235,,900000003103
060003103234,S Tiergarten (Berlin),52.513963,13.336235,,900000003103
060003201213,S+U Berlin Hauptbahnhof,52.525847,13.368924,,900000003201
060003201214,S+U Berlin Hauptbahnhof,52.525847,13.368924,,900000003201
060007102721,S+U Gesundbrunnen Bhf (Berlin),52.548637,13.388372,,900000007102
060007102722,S+U Gesundbrunnen Bhf (Berlin),52.548637,13.388372,,900000007102
060007102723,S+U Gesundbrunnen Bhf (Berlin),52.548637,13.388372,,900000007102
060007102724,S+U Gesundbrunnen Bhf (Berlin),52.548637,13.388372,,900000007102
060007104411,S Nordbahnhof (Berlin),52.531673,13.388794,,900000007104
060007104412,S Nordbahnhof (Berlin),52.531673,13.388794,,900000007104
060007104413,S Nordbahnhof (Berlin),52.531673,13.388794,,900000007104
060007104414,S Nordbahnhof (Berlin),52.531673,13.388794,,900000007104
060008101711,S Humboldthain (Berlin),52.544742,13.378726,,900000008101
060008101712,S Humboldthain (Berlin),52.544742,13.378726,,900000008101
060009104841,S+U Wedding (Berlin),52.542732,13.366060,,900000009104
060009104842,S+U Wedding (Berlin),52.542732,13.366060,,900000009104
060012101472,S Anhalter Bahnhof (Berlin),52.504538,13.382077,,900000012101
060012101473,S Anhalter Bahnhof (Berlin),52.504538,13.382077,,900000012101
060012101474,S Anhalter Bahnhof (Berlin),52.504538,13.382077,,900000012101
060020201955,S+U Jungfernheide Bhf (Berlin),52.530275,13.299064,,900000020201
060020201956,S+U Jungfernheide Bhf (Berlin),52.530275,13.299064,,900000020201
060020202811,S Beusselstr. (Berlin),52.534314,13.328703,,900000020202
060020202812,S Beusselstr. (Berlin),52.534314,13.328703,,900000020202
060023005896,S Potsdam Hauptbahnhof,52.390931,13.067157,,900000230999
060023005897,S Potsdam Hauptbahnhof,52.390931,13.067157,,900000230999
060023201255,S+U Zoologischer Garten Bhf (Berlin),52.506921,13.332707,,900000023201
060023201256,S+U Zoologischer Garten Bhf (Berlin),52.506921,13.332707,,900000023201
060024100801,S Westkreuz (Berlin),52.501152,13.283036,,900000024102
060024100802,S Westkreuz (Berlin),52.501152,13.283036,,900000024102
060024101335,S Charlottenburg Bhf (Berlin),52.505052,13.305212,,900000024101
060024101336,S Charlottenburg Bhf (Berlin),52.505052,13.305212,,900000024101
060024101337,S Charlottenburg Bhf (Berlin),52.505052,13.305212,,900000024101
060024101338,S Charlottenburg Bhf (Berlin),52.505052,13.305212,,900000024101
060024102371,S Westkreuz (Berlin),52.501152,13.283036,,900000024102
060024102372,S Westkreuz (Berlin),52.501152,13.283036,,900000024102
060024102373,S Westkreuz (Berlin),52.501152,13.283036,,900000024102
060024102374,S Westkreuz (Berlin),52.501152,13.283036,,900000024102
060024106801,S Messe Nord/ICC (Berlin),52.506454,13.283043,,900000024106
060024106802,S Messe Nord/ICC (Berlin),52.506454,13.283043,,900000024106
060024203303,S Savignyplatz (Berlin),52.505223,13.319003,,900000024203
060024203304,S Savignyplatz (Berlin),52.505223,13.319003,,900000024203
060025321431,S Olympiastadion (Berlin),52.511135,13.241111,,900000025321
060025321432,S Olympiastadion (Berlin),52.511135,13.241111,,900000025321
060025321434,S Olympiastadion (Berlin),52.511135,13.241111,,900000025321
060025321435,S Olympiastadion (Berlin),52.511135,13.241111,,900000025321
060025321436,S Olympiastadion (Berlin),52.511135,13.241111,,900000025321
060025423401,S Messe Süd (Berlin),52.498771,13.270450,,900000025423
060025423402,S Messe Süd (Berlin),52.498771,13.270450,,900000025423
060025424461,S Pichelsberg (Berlin),52.510264,13.227196,,900000025424
060025424462,S Pichelsberg (Berlin),52.510264,13.227196,,900000025424
060026105401,S Heerstr. (Berlin),52.508273,13.258514,,900000026105
060026105402,S Heerstr. (Berlin),52.508273,13.258514,,900000026105
060026207811,S Westend (Berlin),52.518610,13.284237,,900000026207
060026207812,S Westend (Berlin),52.518610,13.284237,,900000026207
060029101731,S Spandau Bhf (Berlin),52.534798,13.197477,,900000029101
060029101732,S Spandau Bhf (Berlin),52.534798,13.197477,,900000029101
060040101711,S Halensee (Berlin),52.496698,13.290151,,900000040101
060040101712,S Halensee (Berlin),52.496698,13.290151,,900000040101
060044101701,S Hohenzollerndamm (Berlin),52.488314,13.300712,,900000044101
060044101702,S Hohenzollerndamm (Berlin),52.488314,13.300712,,900000044101
060044202621,S+U Bundesplatz (Berlin),52.477366,13.329149,,900000044202
060044202622,S+U Bundesplatz (Berlin),52.477366,13.329149,,900000044202
060045102631,S+U Heidelberger Platz (Berlin),52.479446,13.311843,,900000045102
060045102632,S+U Heidelberger Platz (Berlin),52.479446,13.311843,,900000045102
060048101201,S Grunewald (Berlin),52.488680,13.261944,,900000048101
060048101202,S Grunewald (Berlin),52.488680,13.261944,,900000048101
060048101203,S Grunewald (Berlin),52.488680,13.261944,,900000048101
060048101204,S Grunewald (Berlin),52.488680,13.261944,,900000048101
060049201861,S Zehlendorf (Berlin),52.431209,13.259227,,900000049201
060049201862,S Zehlendorf (Berlin),52.431209,13.259227,,900000049201
060049202851,S Sundgauer Str. (Berlin),52.436187,13.273501,,900000049202
060049202852,S Sundgauer Str. (Berlin),52.436187,13.273501,,900000049202
060050301871,S Mexikoplatz (Berlin),52.437166,13.232060,,900000050301
060050301872,S Mexikoplatz (Berlin),52.437166,13.232060,,900000050301
060050355871,S Schlachtensee (Berlin),52.439806,13.213986,,900000050355
060050355872,S Schlachtensee (Berlin),52.439806,13.213986,,900000050355
060052200881,S Nikolassee (Berlin),52.431210,13.193298,,900000052201
060052200882,S Nikolassee (Berlin),52.431210,13.193298,,900000052201
060052201423,S Nikolassee (Berlin),52.431210,13.193298,,900000052201
060052201424,S Nikolassee (Berlin),52.431210,13.193298,,900000052201
060053301431,S Wannsee Bhf (Berlin),52.421457,13.179099,,900000053301
060053301432,S Wannsee Bhf (Berlin),52.421457,13.179099,,900000053301
060053301433,S Wannsee Bhf (Berlin),52.421457,13.179099,,900000053301
060053301434,S Wannsee Bhf (Berlin),52.421457,13.179099,,900000053301
060054100601,S Schöneberg (Berlin),52.479811,13.352848,,900000054104
060054100602,S Schöneberg (Berlin),52.479811,13.352848,,900000054104
060054104821,S Schöneberg (Berlin),52.479811,13.352848,,900000054104
060054104822,S Schöneberg (Berlin),52.479811,13.352848,,900000054104
060054105611,S+U Innsbrucker Platz (Berlin),52.478100,13.342875,,900000054105
060054105612,S+U Innsbrucker Platz (Berlin),52.478100,13.342875,,900000054105
060057102801,S+U Yorckstr. S1 U7 (Berlin),52.492345,13.367986,,900000057102
060057102802,S+U Yorckstr. S1 U7 (Berlin),52.492345,13.367986,,900000057102
060057104811,S Julius-Leber-Brücke (Berlin),52.486263,13.360775,,900000057104
060057104812,S Julius-Leber-Brücke (Berlin),52.486263,13.360775,,900000057104
060058100531,S Südkreuz Bhf (Berlin),52.475468,13.365579,,900000058101
060058100532,S Südkreuz Bhf (Berlin),52.475468,13.365579,,900000058101
060058101501,S Südkreuz Bhf (Berlin),52.475468,13.365579,,900000058101
060058101502,S Südkreuz Bhf (Berlin),52.475468,13.365579,,900000058101
060058102521,S Priesterweg (Berlin),52.459239,13.356028,,900000058102
060058102522,S Priesterweg (Berlin),52.459239,13.356028,,900000058102
060058102523,S Priesterweg (Berlin),52.459239,13.356028,,900000058102
060058102524,S Priesterweg (Berlin),52.459239,13.356028,,900000058102
060058103481,S+U Yorckstr. S2 S25 U7 (Berlin),52.492323,13.372226,,900000058103
060058103482,S+U Yorckstr. S2 S25 U7 (Berlin),52.492323,13.372226,,900000058103
060060101831,S Friedenau (Berlin),52.470002,13.340598,,900000060101
060060101832,S Friedenau (Berlin),52.470002,13.340598,,900000060101
060062202841,S+U Rathaus Steglitz (Berlin),52.455066,13.322152,,900000062202
060062202842,S+U Rathaus Steglitz (Berlin),52.455066,13.322152,,900000062202
060063101841,S Feuerbachstr. (Berlin),52.463578,13.332412,,900000063101
060063101842,S Feuerbachstr. (Berlin),52.463578,13.332412,,900000063101
060063452531,S Südende (Berlin),52.448899,13.354077,,900000063452
060063452532,S Südende (Berlin),52.448899,13.354077,,900000063452
060064201631,S Lichterfelde Süd (Berlin),52.409956,13.308662,,900000064201
060064201632,S Lichterfelde Süd (Berlin),52.409956,13.308662,,900000064201
060064256621,S Osdorfer Str. (Berlin),52.418373,13.313865,,900000064256
060064256622,S Osdorfer Str. (Berlin),52.418373,13.313865,,900000064256
060064301621,S Lichterfelde Ost Bhf (Berlin),52.429098,13.328078,,900000064301
060064301622,S Lichterfelde Ost Bhf (Berlin),52.429098,13.328078,,900000064301
060066101851,S Lichterfelde West (Berlin),52.443512,13.294141,,900000066101
060066101852,S Lichterfelde West (Berlin),52.443512,13.294141,,900000066101
060066102851,S Botanischer Garten (Berlin),52.447552,13.306041,,900000066102
060066102852,S Botanischer Garten (Berlin),52.447552,13.306041,,900000066102
060067221602,S Lankwitz (Berlin),52.439034,13.342760,,900000067221
060068201511,S+U Tempelhof (Berlin),52.470694,13.385754,,900000068201
060068201512,S+U Tempelhof (Berlin),52.470694,13.385754,,900000068201
060068301001,S Attilastr. (Berlin),52.447298,13.361177,,900000068301
060068301002,S Attilastr. (Berlin),52.447298,13.361177,,900000068301
060072101001,S Buckower Chaussee (Berlin),52.410919,13.382689,,900000072101
060072101002,S Buckower Chaussee (Berlin),52.410919,13.382689,,900000072101
060073101001,S Marienfelde (Berlin),52.423816,13.375022,,900000073101
060073101002,S Marienfelde (Berlin),52.423816,13.375022,,900000073101
060074201001,S Lichtenrade (Berlin),52.387706,13.396358,,900000074201
060074201002,S Lichtenrade (Berlin),52.387706,13.396358,,900000074201
060074202001,S Schichauweg (Berlin),52.398563,13.389457,,900000074202
060074202002,S Schichauweg (Berlin),52.398563,13.389457,,900000074202
060077106401,S Sonnenallee (Berlin),52.473822,13.455998,,900000077106
060077106402,S Sonnenallee (Berlin),52.473822,13.455998,,900000077106
060077155441,S Köllnische Heide (Berlin),52.469168,13.467529,,900000077155
060077155442,S Köllnische Heide (Berlin),52.469168,13.467529,,900000077155
060078201461,S+U Neukölln (Berlin),52.469282,13.443692,,900000078201
060078201462,S+U Neukölln (Berlin),52.469282,13.443692,,900000078201
060079221471,S+U Hermannstr. (Berlin),52.467181,13.431704,,900000079221
060079221472,S+U Hermannstr. (Berlin),52.467181,13.431704,,900000079221
060084101101,S Wilhelmsruh (Berlin),52.581588,13.363284,,900000084101
060084101102,S Wilhelmsruh (Berlin),52.581588,13.363284,,900000084101
060085105001,S Alt-Reinickendorf (Berlin),52.577969,13.349747,,900000085105
060085201683,S Schönholz (Berlin),52.571901,13.380242,,900000085201
060085201684,S Schönholz (Berlin),52.571901,13.380242,,900000085201
060089303001,S Tegel (Berlin),52.588805,13.288695,,900000089303
060089303005,S Tegel (Berlin),52.588805,13.288695,,900000089303
060091203001,S Heiligensee (Berlin),52.625148,13.228667,,900000091203
060091203002,S Heiligensee (Berlin),52.625148,13.228667,,900000091203
060091205001,S Schulzendorf (Berlin),52.613513,13.245630,,900000091205
060092201131,S Frohnau (Berlin),52.632958,13.289564,,900000092201
060092201132,S Frohnau (Berlin),52.632958,13.289564,,900000092201
060093201131,S Hermsdorf (Berlin),52.618165,13.306804,,900000093201
060093201132,S Hermsdorf (Berlin),52.618165,13.306804,,900000093201
060094101121,S Waidmannslust (Berlin),52.606814,13.320549,,900000094101
060094101122,S Waidmannslust (Berlin),52.606814,13.320549,,900000094101
060096101111,S+U Wittenau (Berlin),52.596392,13.335481,,900000096101
060096101112,S+U Wittenau (Berlin),52.596392,13.335481,,900000096101
060096405002,S Eichborndamm (Berlin),52.577545,13.315583,,900000096405
060096458002,S+U Karl-Bonhoeffer-Nervenklinik (Berlin),52.578169,13.332921,,900000096458
060100000431,S+U Friedrichstr. Bhf (Berlin),52.520270,13.387153,,900000100001
060100000432,S+U Friedrichstr. Bhf (Berlin),52.520270,13.387153,,900000100001
060100001755,S+U Friedrichstr. Bhf (Berlin),52.520270,13.387153,,900000100001
060100001756,S+U Friedrichstr. Bhf (Berlin),52.520270,13.387153,,900000100001
060100002733,S Hackescher Markt (Berlin),52.522607,13.402358,,900000100002
060100002734,S Hackescher Markt (Berlin),52.522607,13.402358,,900000100002
060100003723,S+U Alexanderplatz Bhf (Berlin),52.521512,13.411267,,900000100003
060100003724,S+U Alexanderplatz Bhf (Berlin),52.521512,13.411267,,900000100003
060100004703,S+U Jannowitzbrücke (Berlin),52.515500,13.418027,,900000100004
060100004704,S+U Jannowitzbrücke (Berlin),52.515500,13.418027,,900000100004
060100007431,S Oranienburger Str. (Berlin),52.525161,13.393068,,900000100007
060100007432,S Oranienburger Str. (Berlin),52.525161,13.393068,,900000100007
060100020451,S+U Potsdamer Platz Bhf (Berlin),52.509340,13.376454,,900000100020
060100020452,S+U Potsdamer Platz Bhf (Berlin),52.509340,13.376454,,900000100020
060100020453,S+U Potsdamer Platz Bhf (Berlin),52.509340,13.376454,,900000100020
060100020454,S+U Potsdamer Platz Bhf (Berlin),52.509340,13.376454,,900000100020
060100025432,S+U Brandenburger Tor (Berlin),52.516511,13.381937,,900000100025
060100025441,S+U Brandenburger Tor (Berlin),52.516511,13.381937,,900000100025
060108694002,S Ostkreuz Bhf (Berlin),52.502851,13.469093,,900000120003
060110001771,S+U Schönhauser Allee (Berlin),52.549336,13.415138,,900000110001
060110001772,S+U Schönhauser Allee (Berlin),52.549336,13.415138,,900000110001
060110002781,S Prenzlauer Allee (Berlin),52.544802,13.427419,,900000110002
060110002782,S Prenzlauer Allee (Berlin),52.544802,13.427419,,900000110002
060110003511,S Greifswalder Str. (Berlin),52.540724,13.438356,,900000110003
060110003512,S Greifswalder Str. (Berlin),52.540724,13.438356,,900000110003
060110004531,S Landsberger Allee (Berlin),52.528772,13.455944,,900000110004
060110004532,S Landsberger Allee (Berlin),52.528772,13.455944,,900000110004
060110011611,S Bornholmer Str. (Berlin),52.554754,13.397840,,900000110011
060110011612,S Bornholmer Str. (Berlin),52.554754,13.397840,,900000110011
060110011613,S Bornholmer Str. (Berlin),52.554754,13.397840,,900000110011
060110011614,S Bornholmer Str. (Berlin),52.554754,13.397840,,900000110011
060110012541,S Storkower Str. (Berlin),52.524195,13.464884,,900000110012
060110012542,S Storkower Str. (Berlin),52.524195,13.464884,,900000110012
060120001541,S+U Frankfurter Allee (Berlin),52.513613,13.475300,,900000120001
060120001542,S+U Frankfurter Allee (Berlin),52.513613,13.475300,,900000120001
060120003008,S Ostkreuz Bhf (Berlin),52.502851,13.469093,,900000120003
060120003654,S Ostkreuz Bhf (Berlin),52.502851,13.469093,,900000120003
060120004622,S+U Warschauer Str. (Berlin),52.505889,13.448721,,900000120004
060120004624,S+U Warschauer Str. (Berlin),52.505889,13.448721,,900000120004
060120005008,S Ostbahnhof (Berlin),52.510001,13.435747,,900000120005
060120005009,S Ostbahnhof (Berlin),52.510001,13.435747,,900000120005
060120005010,S Ostbahnhof (Berlin),52.510001,13.435747,,900000120005
060120005011,S Ostbahnhof (Berlin),52.510001,13.435747,,900000120005
060120901551,S Ostkreuz Bhf (Berlin),52.502851,13.469093,,900000120003
060120901552,S Ostkreuz Bhf (Berlin),52.502851,13.469093,,900000120003
060130001001,S Pankow-Heinersdorf (Berlin),52.577603,13.429090,,900000130001
060130001002,S Pankow-Heinersdorf (Berlin),52.577603,13.429090,,900000130001
060130002641,S+U Pankow (Berlin),52.567281,13.412279,,900000130002
060130002642,S+U Pankow (Berlin),52.567281,13.412279,,900000130002
060130003653,S Wollankstr. (Berlin),52.564974,13.393150,,900000130003
060130003654,S Wollankstr. (Berlin),52.564974,13.393150,,900000130003
060135001111,S Buch (Berlin),52.636614,13.492452,,900000135001
060135001112,S Buch (Berlin),52.636614,13.492452,,900000135001
060142001001,S Blankenburg (Berlin),52.591069,13.442972,,900000142001
060142001004,S Blankenburg (Berlin),52.591069,13.442972,,900000142001
060143001101,S Karow Bhf (Berlin),52.615755,13.470081,,900000143001
060143001102,S Karow Bhf (Berlin),52.615755,13.470081,,900000143001
060151001011,S Wartenberg (Berlin),52.573266,13.504238,,900000151001
060151001012,S Wartenberg (Berlin),52.573266,13.504238,,900000151001
060152001001,S Hohenschönhausen Bhf (Berlin),52.566549,13.513698,,900000152001
060152001002,S Hohenschönhausen Bhf (Berlin),52.566549,13.513698,,900000152001
060152002051,S Gehrenseestr. (Berlin),52.555736,13.525653,,900000152002
060152002052,S Gehrenseestr. (Berlin),52.555736,13.525653,,900000152002
060160001002,S Rummelsburg (Berlin),52.501213,13.478699,,900000160001
060160002803,S Betriebsbahnhof Rummelsburg (Berlin),52.493957,13.497509,,900000160002
060160002804,S Betriebsbahnhof Rummelsburg (Berlin),52.493957,13.497509,,900000160002
060160003001,S Nöldnerplatz (Berlin),52.503444,13.484297,,900000160003
060160003002,S Nöldnerplatz (Berlin),52.503444,13.484297,,900000160003
060160004001,S+U Lichtenberg Bhf (Berlin),52.510754,13.498228,,900000160004
060160004002,S+U Lichtenberg Bhf (Berlin),52.510754,13.498228,,900000160004
060162001813,S Karlshorst Bhf (Berlin),52.481038,13.525981,,900000162001
060162001814,S Karlshorst Bhf (Berlin),52.481038,13.525981,,900000162001
060170001331,S Marzahn (Berlin),52.543272,13.541524,,900000170001
060170001332,S Marzahn (Berlin),52.543272,13.541524,,900000170001
060170002001,S Raoul-Wallenberg-Str. (Berlin),52.550749,13.548392,,900000170002
060170002002,S Raoul-Wallenberg-Str. (Berlin),52.550749,13.548392,,900000170002
060170003001,S Mehrower Allee (Berlin),52.557816,13.554392,,900000170003
060170003002,S Mehrower Allee (Berlin),52.557816,13.554392,,900000170003
060170004041,S Ahrensfelde Bhf (Berlin),52.571564,13.566118,,900000170004
060170004042,S Ahrensfelde Bhf (Berlin),52.571564,13.566118,,900000170004
060170005001,S Poelchaustr. (Berlin),52.534751,13.536008,,900000170005
060170005002,S Poelchaustr. (Berlin),52.534751,13.536008,,900000170005
060171001001,S Biesdorf (Berlin),52.513059,13.555035,,900000171001
060171001002,S Biesdorf (Berlin),52.513059,13.555035,,900000171001
060171002001,S Friedrichsfelde Ost (Berlin),52.513747,13.520043,,900000171002
060171002002,S Friedrichsfelde Ost (Berlin),52.513747,13.520043,,900000171002
060171003020,S Springpfuhl (Berlin),52.525806,13.536904,,900000171003
060171003021,S Springpfuhl (Berlin),52.525806,13.536904,,900000171003
060175001011,S+U Wuhletal (Berlin),52.512724,13.574536,,900000175001
060175001012,S+U Wuhletal (Berlin),52.512724,13.574536,,900000175001
060175002001,S Kaulsdorf (Berlin),52.512122,13.589030,,900000175002
060175002002,S Kaulsdorf (Berlin),52.512122,13.589030,,900000175002
060176001001,S Mahlsdorf (Berlin),52.512118,13.611230,,900000176001
060176001002,S Mahlsdorf (Berlin),52.512118,13.611230,,900000176001
060176001003,S Mahlsdorf (Berlin),52.512118,13.611230,,900000176001
060176001004,S Mahlsdorf (Berlin),52.512118,13.611230,,900000176001
060180001833,S Köpenick (Berlin),52.458692,13.579543,,900000180001
060180001834,S Köpenick (Berlin),52.458692,13.579543,,900000180001
060180002823,S Wuhlheide (Berlin),52.469058,13.553527,,900000180002
060180002824,S Wuhlheide (Berlin),52.469058,13.553527,,900000180002
060180003001,S Spindlersfeld (Berlin),52.445938,13.562701,,900000180003
060182001843,S Hirschgarten (Berlin),52.457903,13.601480,,900000182001
060182001844,S Hirschgarten (Berlin),52.457903,13.601480,,900000182001
060182002853,S Friedrichshagen (Berlin),52.457090,13.625462,,900000182002
060182002854,S Friedrichshagen (Berlin),52.457090,13.625462,,900000182002
060183001863,S Rahnsdorf (Berlin),52.451371,13.691655,,900000183001
060183001864,S Rahnsdorf (Berlin),52.451371,13.691655,,900000183001
060183002863,S Wilhelmshagen (Berlin),52.438571,13.721004,,900000183002
060183002864,S Wilhelmshagen (Berlin),52.438571,13.721004,,900000183002
060186001811,S Grünau (Berlin),52.412714,13.574018,,900000186001
060186001812,S Grünau (Berlin),52.412714,13.574018,,900000186001
060186001813,S Grünau (Berlin),52.412714,13.574018,,900000186001
060186001814,S Grünau (Berlin),52.412714,13.574018,,900000186001
060190001571,S Treptower Park (Berlin),52.493022,13.460887,,900000190001
060190001572,S Treptower Park (Berlin),52.493022,13.460887,,900000190001
060190001573,S Treptower Park (Berlin),52.493022,13.460887,,900000190001
060190001574,S Treptower Park (Berlin),52.493022,13.460887,,900000190001
060191001003,S Baumschulenweg (Berlin),52.467581,13.489505,,900000191001
060191001004,S Baumschulenweg (Berlin),52.467581,13.489505,,900000191001
060191001005,S Baumschulenweg (Berlin),52.467581,13.489505,,900000191001
060191002003,S Plänterwald (Berlin),52.478722,13.474029,,900000191002
060191002004,S Plänterwald (Berlin),52.478722,13.474029,,900000191002
060192001004,S Schöneweide Bhf (Berlin),52.454611,13.510149,,900000192001
060192001005,S Schöneweide Bhf (Berlin),52.454611,13.510149,,900000192001
060192001006,S Schöneweide Bhf (Berlin),52.454611,13.510149,,900000192001
060192002001,S Oberspree (Berlin),52.452269,13.538461,,900000192002
060193001003,S Betriebsbahnhof Schöneweide (Berlin),52.446695,13.524028,,900000193001
060193001004,S Betriebsbahnhof Schöneweide (Berlin),52.446695,13.524028,,900000193001
060193002003,S Adlershof (Berlin),52.435102,13.540553,,900000193002
060193002004,S Adlershof (Berlin),52.435102,13.540553,,900000193002
060195510641,S Altglienicke (Berlin),52.407791,13.559602,,900000195510
060195510642,S Altglienicke (Berlin),52.407791,13.559602,,900000195510
060196001651,S Grünbergallee (Berlin),52.399539,13.543222,,900000196001
060196001652,S Grünbergallee (Berlin),52.399539,13.543222,,900000196001
060199018711,S Stresow (Berlin),52.532505,13.209130,,900000030202
060199018712,S Stresow (Berlin),52.532505,13.209130,,900000030202
060200000101,S Hennigsdorf Bhf,52.637866,13.205875,,900000200000
060200000105,S Hennigsdorf Bhf,52.637866,13.205875,,900000200000
060200005030,S Oranienburg Bhf,52.754362,13.248432,,900000200005
060200005032,S Oranienburg Bhf,52.754362,13.248432,,900000200005
060200006101,S Lehnitz,52.741273,13.263191,,900000200006
060200006102,S Lehnitz,52.741273,13.263191,,900000200006
060200007101,S Borgsdorf,52.714491,13.276771,,900000200007
060200007102,S Borgsdorf,52.714491,13.276771,,900000200007
060200008004,S Birkenwerder Bhf,52.687871,13.288417,,900000200008
060200008006,S Birkenwerder Bhf,52.687871,13.288417,,900000200008
060200009003,S Hohen Neuendorf,52.669434,13.287224,,900000200009
060200009004,S Hohen Neuendorf,52.669434,13.287224,,900000200009
060200011001,S Bergfelde,52.669695,13.321455,,900000200011
060200011002,S Bergfelde,52.669695,13.321455,,900000200011
060200012006,S Schönfließ,52.664710,13.338880,,900000200012
060200012008,S Schönfließ,52.664710,13.338880,,900000200012
060200013006,S Mühlenbeck-Mönchmühle,52.654076,13.388224,,900000200013
060220114641,S Teltow Stadt,52.397147,13.275975,,900000220114
060220114642,S Teltow Stadt,52.397147,13.275975,,900000220114
060230000841,S Babelsberg,52.391372,13.094623,,900000230000
060230000842,S Babelsberg,52.391372,13.094623,,900000230000
060230003821,S Griebnitzsee Bhf,52.393988,13.128917,,900000230003
060230003822,S Griebnitzsee Bhf,52.393988,13.128917,,900000230003
060250006003,S Blankenfelde (TF) Bhf,52.337628,13.415908,,900000245027
060250007002,S Mahlow,52.360164,13.408775,,900000245028
060250007003,S Mahlow,52.360164,13.408775,,900000245028
060260001002,S Königs Wusterhausen Bhf,52.296921,13.630568,,900000260001
060260002903,S Wildau,52.319205,13.633587,,900000260002
060260002904,S Wildau,52.319205,13.633587,,900000260002
060260003883,S Zeuthen,52.349441,13.626366,,900000260003
060260003884,S Zeuthen,52.349441,13.626366,,900000260003
060260004873,S Eichwalde,52.372085,13.614966,,900000260004
060260004874,S Eichwalde,52.372085,13.614966,,900000260004
060260005671,S Flughafen Berlin-Schönefeld Bhf,52.390792,13.513522,,900000260005
060260005672,S Flughafen Berlin-Schönefeld Bhf,52.390792,13.513522,,900000260005
060310004903,S Erkner Bhf,52.428396,13.752249,,900000310004
060310004905,S Erkner Bhf,52.428396,13.752249,,900000310004
060310004906,S Erkner Bhf,52.428396,13.752249,,900000310004
060320001001,S Strausberg Nord,52.590700,13.908894,,900000320001
060320001003,S Strausberg Nord,52.590700,13.908894,,900000320001
060320002001,S Strausberg Stadt,52.577450,13.888254,,900000320002
060320003001,S Hegermühle,52.549039,13.866790,,900000320003
060320004008,S Strausberg Bhf,52.532364,13.834793,,900000320004
060320004009,S Strausberg Bhf,52.532364,13.834793,,900000320004
060320005001,S Petershagen Nord,52.529185,13.790627,,900000320005
060320006015,S Fredersdorf,52.526461,13.761324,,900000320006
060320006016,S Fredersdorf,52.526461,13.761324,,900000320006
060320007001,S Neuenhagen,52.520674,13.699994,,900000320007
060320008004,S Hoppegarten,52.518141,13.673889,,900000320008
060320026001,S Birkenstein,52.515755,13.648591,,900000320026
060320026002,S Birkenstein,52.515755,13.648591,,900000320026
060330004131,S Bernau Bhf,52.676233,13.593034,,900000350160
060330004132,S Bernau Bhf,52.676233,13.593034,,900000350160
060330005121,S Zepernick,52.659218,13.533143,,900000350163
060330005122,S Zepernick,52.659218,13.533143,,900000350163
060330006121,S Röntgental,52.649062,13.514302,,900000350162
060330022131,S Bernau-Friedenstal,52.668369,13.564597,,900000350161
900000001201,S+U Westhafen (Berlin),52.536183,13.343837,1,
900000003102,S Bellevue (Berlin),52.519951,13.347098,1,
900000003103,S Tiergarten (Berlin),52.513963,13.336235,1,
900000003201,S+U Berlin Hauptbahnhof,52.525847,13.368924,1,
900000007102,S+U Gesundbrunnen Bhf (Berlin),52.548637,13.388372,1,
900000007104,S Nordbahnhof (Berlin),52.531673,13.388794,1,
900000008101,S Humboldthain (Berlin),52.544742,13.378726,1,
900000009104,S+U Wedding (Berlin),52.542732,13.366060,1,
900000012101,S Anhalter Bahnhof (Berlin),52.504538,13.382077,1,
900000020201,S+U Jungfernheide Bhf (Berlin),52.530275,13.299064,1,
900000020202,S Beusselstr. (Berlin),52.534314,13.328703,1,
900000023201,S+U Zoologischer Garten Bhf (Berlin),52.506921,13.332707,1,
900000024101,S Charlottenburg Bhf (Berlin),52.505052,13.305212,1,
900000024102,S Westkreuz (Berlin),52.501152,13.283036,1,
900000024106,S Messe Nord/ICC (Berlin),52.506454,13.283043,1,
900000024203,S Savignyplatz (Berlin),52.505223,13.319003,1,
900000025321,S Olympiastadion (Berlin),52.511135,13.241111,1,
900000025423,S Messe Süd (Berlin),52.498771,13.270450,1,
900000025424,S Pichelsberg (Berlin),52.510264,13.227196,1,
900000026105,S Heerstr. (Berlin),52.508273,13.258514,1,
900000026207,S Westend (Berlin),52.518610,13.284237,1,
900000029101,S Spandau Bhf (Berlin),52.534798,13.197477,1,
900000030202,S Stresow (Berlin),52.532505,13.209130,1,
900000040101,S Halensee (Berlin),52.496698,13.290151,1,
900000044101,S Hohenzollerndamm (Berlin),52.488314,13.300712,1,
900000044202,S+U Bundesplatz (Berlin),52.477366,13.329149,1,
900000045102,S+U Heidelberger Platz (Berlin),52.479446,13.311843,1,
900000048101,S Grunewald (Berlin),52.488680,13.261944,1,
900000049201,S Zehlendorf (Berlin),52.431209,13.259227,1,
900000049202,S Sundgauer Str. (Berlin),52.436187,13.273501,1,
900000050301,S Mexikoplatz (Berlin),52.437166,13.232060,1,
900000050355,S Schlachtensee (Berlin),52.439806,13.213986,1,
900000052201,S Nikolassee (Berlin),52.431210,13.193298,1,
900000053301,S Wannsee Bhf (Berlin),52.421457,13.179099,1,
900000054104,S Schöneberg (Berlin),52.479811,13.352848,1,
900000054105,S+U Innsbrucker Platz (Berlin),52.478100,13.342875,1,
900000057102,S+U Yorckstr. S1 U7 (Berlin),52.492345,13.367986,1,
900000057104,S Julius-Leber-Brücke (Berlin),52.486263,13.360775,1,
900000058101,S Südkreuz Bhf (Berlin),52.475468,13.365579,1,
900000058102,S Priesterweg (Berlin),52.459239,13.356028,1,
900000058103,S+U Yorckstr. S2 S25 U7 (Berlin),52.492323,13.372226,1,
900000060101,S Friedenau (Berlin),52.470002,13.340598,1,
900000062202,S+U Rathaus Steglitz (Berlin),52.455066,13.322152,1,
900000063101,S Feuerbachstr. (Berlin),52.463578,13.332412,1,
900000063452,S Südende (Berlin),52.448899,13.354077,1,
900000064201,S Lichterfelde Süd (Berlin),52.409956,13.308662,1,
900000064256,S Osdorfer Str. (Berlin),52.418373,13.313865,1,
900000064301,S Lichterfelde Ost Bhf (Berlin),52.429098,13.328078,1,
900000066101,S Lichterfelde West (Berlin),52.443512,13.294141,1,
900000066102,S Botanischer Garten (Berlin),52.447552,13.306041,1,
900000067221,S Lankwitz (Berlin),52.439034,13.342760,1,
900000068201,S+U Tempelhof (Berlin),52.470694,13.385754,1,
900000068301,S Attilastr. (Berlin),52.447298,13.361177,1,
900000072101,S Buckower Chaussee (Berlin),52.410919,13.382689,1,
900000073101,S Marienfelde (Berlin),52.423816,13.375022,1,
900000074201,S Lichtenrade (Berlin),52.387706,13.396358,1,
900000074202,S Schichauweg (Berlin),52.398563,13.389457,1,
900000077106,S Sonnenallee (Berlin),52.473822,13.455998,1,
900000077155,S Köllnische Heide (Berlin),52.469168,13.467529,1,
900000078201,S+U Neukölln (Berlin),52.469282,13.443692,1,
900000079221,S+U Hermannstr. (Berlin),52.467181,13.431704,1,
900000084101,S Wilhelmsruh (Berlin),52.581588,13.363284,1,
900000085105,S Alt-Reinickendorf (Berlin),52.577969,13.349747,1,
900000085201,S Schönholz (Berlin),52.571901,13.380242,1,
900000089303,S Tegel (Berlin),52.588805,13.288695,1,
900000091203,S Heiligensee (Berlin),52.625148,13.228667,1,
900000091205,S Schulzendorf (Berlin),52.613513,13.245630,1,
900000092201,S Frohnau (Berlin),52.632958,13.289564,1,
900000093201,S Hermsdorf (Berlin),52.618165,13.306804,1,
900000094101,S Waidmannslust (Berlin),52.606814,13.320549,1,
900000096101,S+U Wittenau (Berlin),52.596392,13.335481,1,
900000096405,S Eichborndamm (Berlin),52.577545,13.315583,1,
900000096458,S+U Karl-Bonhoeffer-Nervenklinik (Berlin),52.578169,13.332921,1,
900000100001,S+U Friedrichstr. Bhf (Berlin),52.520270,13.387153,1,
900000100002,S Hackescher Markt (Berlin),52.522607,13.402358,1,
900000100003,S+U Alexanderplatz Bhf (Berlin),52.521512,13.411267,1,
900000100004,S+U Jannowitzbrücke (Berlin),52.515500,13.418027,1,
900000100007,S Oranienburger Str. (Berlin),52.525161,13.393068,1,
900000100020,S+U Potsdamer Platz Bhf (Berlin),52.509340,13.376454,1,
900000100025,S+U Brandenburger Tor (Berlin),52.516511,13.381937,1,
900000110001,S+U Schönhauser Allee (Berlin),52.549336,13.415138,1,
900000110002,S Prenzlauer Allee (Berlin),52.544802,13.427419,1,
900000110003,S Greifswalder Str. (Berlin),52.540724,13.438356,1,
900000110004,S Landsberger Allee (Berlin),52.528772,13.455944,1,
900000110011,S Bornholmer Str. (Berlin),52.554754,13.397840,1,
900000110012,S Storkower Str. (Berlin),52.524195,13.464884,1,
900000120001,S+U Frankfurter Allee (Berlin),52.513613,13.475300,1,
900000120003,S Ostkreuz Bhf (Berlin),52.502851,13.469093,1,
900000120004,S+U Warschauer Str. (Berlin),52.505889,13.448721,1,
900000120005,S Ostbahnhof (Berlin),52.510001,13.435747,1,
900000130001,S Pankow-Heinersdorf (Berlin),52.577603,13.429090,1,
900000130002,S+U Pankow (Berlin),52.567281,13.412279,1,
900000130003,S Wollankstr. (Berlin),52.564974,13.393150,1,
900000135001,S Buch (Berlin),52.636614,13.492452,1,
900000142001,S Blankenburg (Berlin),52.591069,13.442972,1,
900000143001,S Karow Bhf (Berlin),52.615755,13.470081,1,
900000151001,S Wartenberg (Berlin),52.573266,13.504238,1,
900000152001,S Hohenschönhausen Bhf (Berlin),52.566549,13.513698,1,
900000152002,S Gehrenseestr. (Berlin),52.555736,13.525653,1,
900000160001,S Rummelsburg (Berlin),52.501213,13.478699,1,
900000160002,S Betriebsbahnhof Rummelsburg (Berlin),52.493957,13.497509,1,
900000160003,S Nöldnerplatz (Berlin),52.503444,13.484297,1,
900000160004,S+U Lichtenberg Bhf (Berlin),52.510754,13.498228,1,
900000162001,S Karlshorst Bhf (Berlin),52.481038,13.525981,1,
900000170001,S Marzahn (Berlin),52.543272,13.541524,1,
900000170002,S Raoul-Wallenberg-Str. (Berlin),52.550749,13.548392,1,
900000170003,S Mehrower Allee (Berlin),52.557816,13.554392,1,
900000170004,S Ahrensfelde Bhf (Berlin),52.571564,13.566118,1,
900000170005,S Poelchaustr. (Berlin),52.534751,13.536008,1,
900000171001,S Biesdorf (Berlin),52.513059,13.555035,1,
900000171002,S Friedrichsfelde Ost (Berlin),52.513747,13.520043,1,
900000171003,S Springpfuhl (Berlin),52.525806,13.536904,1,
900000175001,S+U Wuhletal (Berlin),52.512724,13.574536,1,
900000175002,S Kaulsdorf (Berlin),52.512122,13.589030,1,
900000176001,S Mahlsdorf (Berlin),52.512118,13.611230,1,
900000180001,S Köpenick (Berlin),52.458692,13.579543,1,
900000180002,S Wuhlheide (Berlin),52.469058,13.553527,1,
900000180003,S Spindlersfeld (Berlin),52.445938,13.562701,1,
900000182001,S Hirschgarten (Berlin),52.457903,13.601480,1,
900000182002,S Friedrichshagen (Berlin),52.457090,13.625462,1,
900000183001,S Rahnsdorf (Berlin),52.451371,13.691655,1,
900000183002,S Wilhelmshagen (Berlin),52.438571,13.721004,1,
900000186001,S Grünau (Berlin),52.412714,13.574018,1,
900000190001,S Treptower Park (Berlin),52.493022,13.460887,1,
900000191001,S Baumschulenweg (Berlin),52.467581,13.489505,1,
900000191002,S Plänterwald (Berlin),52.478722,13.474029,1,
900000192001,S Schöneweide Bhf (Berlin),52.454611,13.510149,1,
900000192002,S Oberspree (Berlin),52.452269,13.538461,1,
900000193001,S Betriebsbahnhof Schöneweide (Berlin),52.446695,13.524028,1,
900000193002,S Adlershof (Berlin),52.435102,13.540553,1,
900000195510,S Altglienicke (Berlin),52.407791,13.559602,1,
900000196001,S Grünbergallee (Berlin),52.399539,13.543222,1,
900000200000,S Hennigsdorf Bhf,52.637866,13.205875,1,
900000200005,S Oranienburg Bhf,52.754362,13.248432,1,
900000200006,S Lehnitz,52.741273,13.263191,1,
900000200007,S Borgsdorf,52.714491,13.276771,1,
900000200008,S Birkenwerder Bhf,52.687871,13.288417,1,
900000200009,S Hohen Neuendorf,52.669434,13.287224,1,
900000200011,S Bergfelde,52.669695,13.321455,1,
900000200012,S Schönfließ,52.664710,13.338880,1,
900000200013,S Mühlenbeck-Mönchmühle,52.654076,13.388224,1,
900000220114,S Teltow Stadt,52.397147,13.275975,1,
900000230000,S Babelsberg,52.391372,13.094623,1,
900000230003,S Griebnitzsee Bhf,52.393988,13.128917,1,
900000230999,S Potsdam Hauptbahnhof,52.390931,13.067157,1,
900000245027,S Blankenfelde (TF) Bhf,52.337628,13.415908,1,
900000245028,S Mahlow,52.360164,13.408775,1,
900000260001,S Königs Wusterhausen Bhf,52.296921,13.630568,1,
900000260002,S Wildau,52.319205,13.633587,1,
900000260003,S Zeuthen,52.349441,13.626366,1,
900000260004,S Eichwalde,52.372085,13.614966,1,
900000260005,S Flughafen Berlin-Schönefeld Bhf,52.390792,13.513522,1,
900000310004,S Erkner Bhf,52.428396,13.752249,1,
900000320001,S Strausberg Nord,52.590700,13.908894,1,
900000320002,S Strausberg Stadt,52.577450,13.888254,1,
900000320003,S Hegermühle,52.549039,13.866790,1,
900000320004,S Strausberg Bhf,52.532364,13.834793,1,
900000320005,S Petershagen Nord,52.529185,13.790627,1,
900000320006,S Fredersdorf,52.526461,13.761324,1,
900000320007,S Neuenhagen,52.520674,13.699994,1,
900000320008,S Hoppegarten,52.518141,13.673889,1,
900000320026,S Birkenstein,52.515755,13.648591,1,
900000350160,S Bernau Bhf,52.676233,13.593034,1,
900000350161,S Bernau-Friedenstal,52.668369,13.564597,1,
900000350162,S Röntgental,52.649062,13.514302,1,
900000350163,S Zepernick,52.659218,13.533143,1,
